{
  "type": "FeatureCollection",
  "features": [
    { "type": "Feature", "properties": { "station": "Utqiagvik, AK", "country": "USA", "company": "Atlas", "status": "Operational", "S_band_Tx": true, "S_band_Rx": true, "X_band_Rx": true, "Ka_band_Rx": false, "UHF_Tx": false, "UHF_Rx": false }, "geometry": { "type": "Point", "coordinates": [-156.81, 71.27] } },
    { "type": "Feature", "properties": { "station": "Chitose", "country": "Japan", "company": "Atlas", "status": "Operational", "S_band_Tx": true, "S_band_Rx": true, "X_band_Rx": true, "Ka_band_Rx": false, "UHF_Tx": false, "UHF_Rx": false }, "geometry": { "type": "Point", "coordinates": [141.62, 42.77] } },
    { "type": "Feature", "properties": { "station": "Dundee", "country": "United Kingdom", "company": "Atlas", "status": "Operational", "S_band_Tx": true, "S_band_Rx": true, "X_band_Rx": true, "Ka_band_Rx": false, "UHF_Tx": false, "UHF_Rx": false }, "geometry": { "type": "Point", "coordinates": [-3.18, 56.4] } },
    { "type": "Feature", "properties": { "station": "Muonio", "country": "Finland", "company": "Atlas", "status": "Operational", "S_band_Tx": true, "S_band_Rx": true, "X_band_Rx": true, "Ka_band_Rx": false, "UHF_Tx": false, "UHF_Rx": false }, "geometry": { "type": "Point", "coordinates": [23.92, 67.89] } },
    { "type": "Feature", "properties": { "station": "Dubai", "country": "United Arab Emirates", "company": "Atlas", "status": "Operational", "S_band_Tx": true, "S_band_Rx": true, "X_band_Rx": true, "Ka_band_Rx": false, "UHF_Tx": false, "UHF_Rx": false }, "geometry": { "type": "Point", "coordinates": [55.35, 24.94] } },
    { "type": "Feature", "properties": { "station": "Harmon, Guam", "country": "USA", "company": "Atlas", "status": "Operational", "S_band_Tx": true, "S_band_Rx": true, "X_band_Rx": true, "Ka_band_Rx": false, "UHF_Tx": false, "UHF_Rx": false }, "geometry": { "type": "Point", "coordinates": [144.82, 13.51] } },
    { "type": "Feature", "properties": { "station": "Mojave, CA", "country": "USA", "company": "Atlas", "status": "Operational", "S_band_Tx": true, "S_band_Rx": true, "X_band_Rx": true, "Ka_band_Rx": false, "UHF_Tx": false, "UHF_Rx": false }, "geometry": { "type": "Point", "coordinates": [-118.15, 35.05] } },
    { "type": "Feature", "properties": { "station": "Sunyani", "country": "Ghana", "company": "Atlas", "status": "Operational", "S_band_Tx": true, "S_band_Rx": true, "X_band_Rx": false, "Ka_band_Rx": false, "UHF_Tx": false, "UHF_Rx": false }, "geometry": { "type": "Point", "coordinates": [-2.34, 7.34] } },
    { "type": "Feature", "properties": { "station": "Awarua", "country": "New Zealand", "company": "Atlas", "status": "Operational", "S_band_Tx": true, "S_band_Rx": true, "X_band_Rx": true, "Ka_band_Rx": false, "UHF_Tx": false, "UHF_Rx": false }, "geometry": { "type": "Point", "coordinates": [168.38, -46.52] } },
    { "type": "Feature", "properties": { "station": "Paumalu, HI", "country": "USA", "company": "Atlas", "status": "Operational", "S_band_Tx": true, "S_band_Rx": true, "X_band_Rx": true, "Ka_band_Rx": false, "UHF_Tx": false, "UHF_Rx": false }, "geometry": { "type": "Point", "coordinates": [-158.03, 21.67] } },
    { "type": "Feature", "properties": { "station": "Mwulire", "country": "Rwanda", "company": "Atlas", "status": "Operational", "S_band_Tx": true, "S_band_Rx": true, "X_band_Rx": true, "Ka_band_Rx": false, "UHF_Tx": false, "UHF_Rx": false }, "geometry": { "type": "Point", "coordinates": [30.39, -1.93] } },
    { "type": "Feature", "properties": { "station": "Sodankylä", "country": "Finland", "company": "Atlas Partner", "status": "Operational", "S_band_Tx": true, "S_band_Rx": true, "X_band_Rx": true, "Ka_band_Rx": false, "UHF_Tx": false, "UHF_Rx": false }, "geometry": { "type": "Point", "coordinates": [26.63, 67.36] } },
    { "type": "Feature", "properties": { "station": "Öjebyn", "country": "Sweden", "company": "Atlas Partner", "status": "Operational", "S_band_Tx": true, "S_band_Rx": true, "X_band_Rx": true, "Ka_band_Rx": true, "UHF_Tx": false, "UHF_Rx": false }, "geometry": { "type": "Point", "coordinates": [21.42, 65.33] } },
    { "type": "Feature", "properties": { "station": "North Pole, AK", "country": "USA", "company": "Atlas Partner", "status": "Operational", "S_band_Tx": true, "S_band_Rx": true, "X_band_Rx": true, "Ka_band_Rx": true, "UHF_Tx": false, "UHF_Rx": false }, "geometry": { "type": "Point", "coordinates": [-147.53, 64.79] } },
    { "type": "Feature", "properties": { "station": "Stockholm", "country": "Sweden", "company": "Atlas Partner", "status": "Operational", "S_band_Tx": true, "S_band_Rx": true, "X_band_Rx": true, "Ka_band_Rx": false, "UHF_Tx": false, "UHF_Rx": false }, "geometry": null },
    { "type": "Feature", "properties": { "station": "Dublin", "country": "Ireland", "company": "Atlas Partner", "status": "Operational", "S_band_Tx": true, "S_band_Rx": true, "X_band_Rx": true, "Ka_band_Rx": false, "UHF_Tx": false, "UHF_Rx": false }, "geometry": null },
    { "type": "Feature", "properties": { "station": "Guildford", "country": "United Kingdom", "company": "Atlas Partner", "status": "Operational", "S_band_Tx": true, "S_band_Rx": true, "X_band_Rx": true, "Ka_band_Rx": false, "UHF_Tx": false, "UHF_Rx": false }, "geometry": { "type": "Point", "coordinates": [-0.61, 51.24] } },
    { "type": "Feature", "properties": { "station": "Portland, OR", "country": "USA", "company": "Atlas Partner", "status": "Operational", "S_band_Tx": true, "S_band_Rx": true, "X_band_Rx": true, "Ka_band_Rx": false, "UHF_Tx": false, "UHF_Rx": false }, "geometry": null },
    { "type": "Feature", "properties": { "station": "Obihiro", "country": "Japan", "company": "Atlas Partner", "status": "Operational", "S_band_Tx": true, "S_band_Rx": true, "X_band_Rx": true, "Ka_band_Rx": true, "UHF_Tx": false, "UHF_Rx": false }, "geometry": { "type": "Point", "coordinates": [143.45, 42.59] } },
    { "type": "Feature", "properties": { "station": "Columbus, OH", "country": "USA", "company": "Atlas Partner", "status": "Operational", "S_band_Tx": true, "S_band_Rx": true, "X_band_Rx": true, "Ka_band_Rx": false, "UHF_Tx": false, "UHF_Rx": false }, "geometry": null },
    { "type": "Feature", "properties": { "station": "Seoul", "country": "South Korea", "company": "Atlas Partner", "status": "Operational", "S_band_Tx": true, "S_band_Rx": true, "X_band_Rx": true, "Ka_band_Rx": false, "UHF_Tx": false, "UHF_Rx": false }, "geometry": null },
    { "type": "Feature", "properties": { "station": "Pendergrass, GA", "country": "USA", "company": "Atlas Partner", "status": "Operational", "S_band_Tx": true, "S_band_Rx": true, "X_band_Rx": true, "Ka_band_Rx": false, "UHF_Tx": false, "UHF_Rx": false }, "geometry": { "type": "Point", "coordinates": [-83.67, 34.17] } },
    { "type": "Feature", "properties": { "station": "Deadhorse, AK", "country": "USA", "company": "Atlas Partner", "status": "Operational", "S_band_Tx": true, "S_band_Rx": true, "X_band_Rx": true, "Ka_band_Rx": false, "UHF_Tx": false, "UHF_Rx": false }, "geometry": null },
    { "type": "Feature", "properties": { "station": "Zallaq", "country": "Bahrain", "company": "Atlas Partner", "status": "Operational", "S_band_Tx": true, "S_band_Rx": true, "X_band_Rx": true, "Ka_band_Rx": false, "UHF_Tx": false, "UHF_Rx": false }, "geometry": null },
    { "type": "Feature", "properties": { "station": "Kapolei, HI", "country": "USA", "company": "Atlas Partner", "status": "Operational", "S_band_Tx": true, "S_band_Rx": true, "X_band_Rx": true, "Ka_band_Rx": false, "UHF_Tx": false, "UHF_Rx": false }, "geometry": null },
    { "type": "Feature", "properties": { "station": "Accra", "country": "Ghana", "company": "Atlas Partner", "status": "Operational", "S_band_Tx": true, "S_band_Rx": true, "X_band_Rx": true, "Ka_band_Rx": true, "UHF_Tx": false, "UHF_Rx": false }, "geometry": { "type": "Point", "coordinates": [-0.3, 5.74] } },
    { "type": "Feature", "properties": { "station": "Singapore", "country": "Singapore", "company": "Atlas Partner", "status": "Operational", "S_band_Tx": true, "S_band_Rx": true, "X_band_Rx": true, "Ka_band_Rx": false, "UHF_Tx": false, "UHF_Rx": false }, "geometry": null },
    { "type": "Feature", "properties": { "station": "Alice Springs", "country": "Australia", "company": "Atlas Partner", "status": "Operational", "S_band_Tx": true, "S_band_Rx": true, "X_band_Rx": true, "Ka_band_Rx": true, "UHF_Tx": false, "UHF_Rx": false }, "geometry": { "type": "Point", "coordinates": [133.88, -23.75] } },
    { "type": "Feature", "properties": { "station": "Pretoria", "country": "South Africa", "company": "Atlas Partner", "status": "Operational", "S_band_Tx": true, "S_band_Rx": true, "X_band_Rx": true, "Ka_band_Rx": true, "UHF_Tx": false, "UHF_Rx": false }, "geometry": { "type": "Point", "coordinates": [27.7, -25.88] } },
    { "type": "Feature", "properties": { "station": "Mingenew", "country": "Australia", "company": "Atlas Partner", "status": "Operational", "S_band_Tx": true, "S_band_Rx": true, "X_band_Rx": true, "Ka_band_Rx": false, "UHF_Tx": false, "UHF_Rx": false }, "geometry": { "type": "Point", "coordinates": [115.34, -29.01] } },
    { "type": "Feature", "properties": { "station": "Córdoba", "country": "Argentina", "company": "Atlas Partner", "status": "Operational", "S_band_Tx": true, "S_band_Rx": true, "X_band_Rx": true, "Ka_band_Rx": false, "UHF_Tx": false, "UHF_Rx": false }, "geometry": { "type": "Point", "coordinates": [-64.46, -31.52] } },
    { "type": "Feature", "properties": { "station": "Cape Town", "country": "South Africa", "company": "Atlas Partner", "status": "Operational", "S_band_Tx": true, "S_band_Rx": true, "X_band_Rx": true, "Ka_band_Rx": false, "UHF_Tx": false, "UHF_Rx": false }, "geometry": null },
    { "type": "Feature", "properties": { "station": "Dubbo", "country": "Australia", "company": "Atlas Partner", "status": "Operational", "S_band_Tx": true, "S_band_Rx": true, "X_band_Rx": true, "Ka_band_Rx": false, "UHF_Tx": false, "UHF_Rx": false }, "geometry": null },
    { "type": "Feature", "properties": { "station": "Punta Arenas", "country": "Chile", "company": "Atlas Partner", "status": "Operational", "S_band_Tx": true, "S_band_Rx": true, "X_band_Rx": true, "Ka_band_Rx": false, "UHF_Tx": false, "UHF_Rx": false }, "geometry": null },
    { "type": "Feature", "properties": { "station": "Ushuaia", "country": "Argentina", "company": "Atlas Partner", "status": "Operational", "S_band_Tx": true, "S_band_Rx": true, "X_band_Rx": true, "Ka_band_Rx": true, "UHF_Tx": false, "UHF_Rx": false }, "geometry": { "type": "Point", "coordinates": [-67.11, -54.51] } },
    { "type": "Feature", "properties": { "station": "Clewiston, FL", "country": "USA", "company": "SSC", "status": "Operational", "S_band_Tx": true, "S_band_Rx": false, "X_band_Rx": true, "Ka_band_Rx": false, "UHF_Tx": false, "UHF_Rx": false }, "geometry": { "type": "Point", "coordinates": [-81.0333, 26.7333] } },
    { "type": "Feature", "properties": { "station": "Esrange", "country": "Sweden", "company": "SSC", "status": "Operational", "S_band_Tx": true, "S_band_Rx": true, "X_band_Rx": true, "Ka_band_Rx": false, "UHF_Tx": false, "UHF_Rx": true }, "geometry": { "type": "Point", "coordinates": [21.0667, 67.8833] } },
    { "type": "Feature", "properties": { "station": "Inuvik", "country": "Canada", "company": "SSC", "status": "Operational", "S_band_Tx": true, "S_band_Rx": true, "X_band_Rx": true, "Ka_band_Rx": false, "UHF_Tx": false, "UHF_Rx": false }, "geometry": { "type": "Point", "coordinates": [-133.5, 68.4] } },
    { "type": "Feature", "properties": { "station": "North Pole, AK", "country": "USA", "company": "SSC", "status": "Operational", "S_band_Tx": true, "S_band_Rx": true, "X_band_Rx": true, "Ka_band_Rx": true, "UHF_Tx": false, "UHF_Rx": false }, "geometry": { "type": "Point", "coordinates": [-147.65, 64.8] } },
    { "type": "Feature", "properties": { "station": "Punta Arenas", "country": "Chile", "company": "SSC", "status": "Operational", "S_band_Tx": true, "S_band_Rx": true, "X_band_Rx": true, "Ka_band_Rx": true, "UHF_Tx": false, "UHF_Rx": false }, "geometry": { "type": "Point", "coordinates": [-70.85, -52.9333] } },
    { "type": "Feature", "properties": { "station": "Santiago", "country": "Chile", "company": "SSC", "status": "Operational", "S_band_Tx": true, "S_band_Rx": true, "X_band_Rx": false, "Ka_band_Rx": false, "UHF_Tx": false, "UHF_Rx": false }, "geometry": { "type": "Point", "coordinates": [-70.6667, -33.1333] } },
    { "type": "Feature", "properties": { "station": "Siracha", "country": "Thailand", "company": "SSC", "status": "Operational", "S_band_Tx": true, "S_band_Rx": true, "X_band_Rx": true, "Ka_band_Rx": false, "UHF_Tx": false, "UHF_Rx": false }, "geometry": { "type": "Point", "coordinates": [100.9167, 13.11] } },
    { "type": "Feature", "properties": { "station": "South Point, HI", "country": "USA", "company": "SSC", "status": "Operational", "S_band_Tx": true, "S_band_Rx": true, "X_band_Rx": true, "Ka_band_Rx": true, "UHF_Tx": false, "UHF_Rx": false }, "geometry": { "type": "Point", "coordinates": [-155.6667, 19.0167] } },
    { "type": "Feature", "properties": { "station": "Dongara", "country": "Australia", "company": "SSC", "status": "Operational", "S_band_Tx": true, "S_band_Rx": true, "X_band_Rx": true, "Ka_band_Rx": false, "UHF_Tx": false, "UHF_Rx": false }, "geometry": { "type": "Point", "coordinates": [115.5833, -29.0833] } },
    { "type": "Feature", "properties": { "station": "O’Higgins", "country": "Antarctica", "company": "SSC Partner", "status": "Operational", "S_band_Tx": false, "S_band_Rx": false, "X_band_Rx": false, "Ka_band_Rx": false, "UHF_Tx": false, "UHF_Rx": false }, "geometry": { "type": "Point", "coordinates": [-57.9, -63.32] } },
    { "type": "Feature", "properties": { "station": "Fucino", "country": "Italy", "company": "SSC Partner", "status": "Operational", "S_band_Tx": false, "S_band_Rx": false, "X_band_Rx": false, "Ka_band_Rx": false, "UHF_Tx": false, "UHF_Rx": false }, "geometry": { "type": "Point", "coordinates": [13.5, 42] } },
    { "type": "Feature", "properties": { "station": "Weilheim", "country": "Germany", "company": "SSC Partner", "status": "Operational", "S_band_Tx": false, "S_band_Rx": false, "X_band_Rx": false, "Ka_band_Rx": false, "UHF_Tx": false, "UHF_Rx": false }, "geometry": { "type": "Point", "coordinates": [11.15, 47.84] } },
    { "type": "Feature", "properties": { "station": "Madrid", "country": "Spain", "company": "SSC Partner", "status": "Operational", "S_band_Tx": false, "S_band_Rx": false, "X_band_Rx": false, "Ka_band_Rx": false, "UHF_Tx": false, "UHF_Rx": false }, "geometry": { "type": "Point", "coordinates": [-3.7, 40.42] } },
    { "type": "Feature", "properties": { "station": "Hartebeesthoek", "country": "South Africa", "company": "SSC Partner", "status": "Operational", "S_band_Tx": false, "S_band_Rx": false, "X_band_Rx": false, "Ka_band_Rx": false, "UHF_Tx": false, "UHF_Rx": false }, "geometry": { "type": "Point", "coordinates": [27.7, -25.88] } },
    { "type": "Feature", "properties": { "station": "Bengaluru", "country": "India", "company": "SSC Partner", "status": "Operational", "S_band_Tx": false, "S_band_Rx": false, "X_band_Rx": false, "Ka_band_Rx": false, "UHF_Tx": false, "UHF_Rx": false }, "geometry": { "type": "Point", "coordinates": [77.3, 13.8] } },
    { "type": "Feature", "properties": { "station": "Hokkaido", "country": "Japan", "company": "SSC Partner", "status": "Operational", "S_band_Tx": false, "S_band_Rx": false, "X_band_Rx": false, "Ka_band_Rx": false, "UHF_Tx": false, "UHF_Rx": false }, "geometry": { "type": "Point", "coordinates": [141.35, 43.06] } },
    { "type": "Feature", "properties": { "station": "Okinawa", "country": "Japan", "company": "SSC Partner", "status": "Operational", "S_band_Tx": false, "S_band_Rx": false, "X_band_Rx": false, "Ka_band_Rx": false, "UHF_Tx": false, "UHF_Rx": false }, "geometry": { "type": "Point", "coordinates": [127.98, 26.51] } },
    { "type": "Feature", "properties": { "station": "Kentucky", "country": "USA", "company": "SSC Partner", "status": "Operational", "S_band_Tx": false, "S_band_Rx": false, "X_band_Rx": false, "Ka_band_Rx": false, "UHF_Tx": false, "UHF_Rx": false }, "geometry": { "type": "Point", "coordinates": [-85.78, 37.83] } },
    { "type": "Feature", "properties": { "station": "Maspalomas", "country": "Spain", "company": "SSC Partner", "status": "Operational", "S_band_Tx": false, "S_band_Rx": false, "X_band_Rx": false, "Ka_band_Rx": false, "UHF_Tx": false, "UHF_Rx": false }, "geometry": { "type": "Point", "coordinates": [-15.6, 27.74] } },
    { "type": "Feature", "properties": { "station": "Latvia", "country": "Latvia", "company": "SSC Partner", "status": "Operational", "S_band_Tx": false, "S_band_Rx": false, "X_band_Rx": false, "Ka_band_Rx": false, "UHF_Tx": false, "UHF_Rx": false }, "geometry": { "type": "Point", "coordinates": [24.63, 56.88] } },
    { "type": "Feature", "properties": { "station": "La Paz", "country": "Mexico", "company": "Leaf", "status": "Operational", "S_band_Tx": true, "S_band_Rx": true, "X_band_Rx": true, "Ka_band_Rx": false, "UHF_Tx": false, "UHF_Rx": false }, "geometry": { "type": "Point", "coordinates": [-110.38, 24.08] } },
    { "type": "Feature", "properties": { "station": "Santiago", "country": "Chile", "company": "Leaf", "status": "Operational", "S_band_Tx": true, "S_band_Rx": true, "X_band_Rx": true, "Ka_band_Rx": false, "UHF_Tx": false, "UHF_Rx": false }, "geometry": { "type": "Point", "coordinates": [-70.77, -33.35] } },
    { "type": "Feature", "properties": { "station": "Punta Arenas", "country": "Chile", "company": "Leaf", "status": "Operational", "S_band_Tx": true, "S_band_Rx": true, "X_band_Rx": true, "Ka_band_Rx": true, "UHF_Tx": false, "UHF_Rx": false }, "geometry": { "type": "Point", "coordinates": [-70.83, -53.03] } },
    { "type": "Feature", "properties": { "station": "Blönduós", "country": "Iceland", "company": "Leaf", "status": "Operational", "S_band_Tx": true, "S_band_Rx": true, "X_band_Rx": true, "Ka_band_Rx": true, "UHF_Tx": false, "UHF_Rx": false }, "geometry": { "type": "Point", "coordinates": [-20.66, 65.63] } },
    { "type": "Feature", "properties": { "station": "Jeju", "country": "South Korea", "company": "Leaf", "status": "Operational", "S_band_Tx": true, "S_band_Rx": true, "X_band_Rx": true, "Ka_band_Rx": false, "UHF_Tx": false, "UHF_Rx": false }, "geometry": { "type": "Point", "coordinates": [126.57, 33.38] } },
    { "type": "Feature", "properties": { "station": "Kandy", "country": "Sri Lanka", "company": "Leaf", "status": "Operational", "S_band_Tx": true, "S_band_Rx": true, "X_band_Rx": true, "Ka_band_Rx": false, "UHF_Tx": false, "UHF_Rx": false }, "geometry": { "type": "Point", "coordinates": [80.43, 7.27] } },
    { "type": "Feature", "properties": { "station": "Absheron", "country": "Azerbaijan", "company": "Leaf", "status": "Operational", "S_band_Tx": true, "S_band_Rx": true, "X_band_Rx": true, "Ka_band_Rx": false, "UHF_Tx": false, "UHF_Rx": false }, "geometry": { "type": "Point", "coordinates": [49.43, 40.45] } },
    { "type": "Feature", "properties": { "station": "Mon Loisir", "country": "Mauritius", "company": "Leaf", "status": "Operational", "S_band_Tx": true, "S_band_Rx": true, "X_band_Rx": true, "Ka_band_Rx": false, "UHF_Tx": false, "UHF_Rx": false }, "geometry": { "type": "Point", "coordinates": [57.68, -20.13] } },
    { "type": "Feature", "properties": { "station": "Peterborough", "country": "Australia", "company": "Leaf", "status": "Operational", "S_band_Tx": true, "S_band_Rx": true, "X_band_Rx": true, "Ka_band_Rx": false, "UHF_Tx": false, "UHF_Rx": false }, "geometry": { "type": "Point", "coordinates": [138.83, -32.95] } },
    { "type": "Feature", "properties": { "station": "Nangetty", "country": "Australia", "company": "Leaf", "status": "Operational", "S_band_Tx": true, "S_band_Rx": true, "X_band_Rx": true, "Ka_band_Rx": false, "UHF_Tx": false, "UHF_Rx": false }, "geometry": { "type": "Point", "coordinates": [115.32, -28.66] } },
    { "type": "Feature", "properties": { "station": "Santa Maria (Azores)", "country": "Portugal", "company": "Leaf", "status": "Operational", "S_band_Tx": true, "S_band_Rx": true, "X_band_Rx": true, "Ka_band_Rx": false, "UHF_Tx": false, "UHF_Rx": false }, "geometry": { "type": "Point", "coordinates": [-25.14, 36.98] } },
    { "type": "Feature", "properties": { "station": "Unst (Shetland)", "country": "United Kingdom", "company": "Leaf", "status": "Operational", "S_band_Tx": true, "S_band_Rx": true, "X_band_Rx": true, "Ka_band_Rx": false, "UHF_Tx": false, "UHF_Rx": false }, "geometry": { "type": "Point", "coordinates": [-0.86, 60.73] } },
    { "type": "Feature", "properties": { "station": "Kaspichan", "country": "Bulgaria", "company": "Leaf", "status": "Operational", "S_band_Tx": true, "S_band_Rx": true, "X_band_Rx": false, "Ka_band_Rx": false, "UHF_Tx": false, "UHF_Rx": false }, "geometry": { "type": "Point", "coordinates": [27.15, 43.3] } },
    { "type": "Feature", "properties": { "station": "Plana", "country": "Bulgaria", "company": "Leaf", "status": "Operational", "S_band_Tx": true, "S_band_Rx": true, "X_band_Rx": true, "Ka_band_Rx": false, "UHF_Tx": false, "UHF_Rx": false }, "geometry": { "type": "Point", "coordinates": [23.43, 42.47] } },
    { "type": "Feature", "properties": { "station": "Pretoria", "country": "South Africa", "company": "Leaf", "status": "Operational", "S_band_Tx": true, "S_band_Rx": true, "X_band_Rx": true, "Ka_band_Rx": false, "UHF_Tx": false, "UHF_Rx": false }, "geometry": { "type": "Point", "coordinates": [28.45, -25.85] } },
    { "type": "Feature", "properties": { "station": "St Helena", "country": "United Kingdom", "company": "Leaf", "status": "Operational", "S_band_Tx": true, "S_band_Rx": true, "X_band_Rx": true, "Ka_band_Rx": false, "UHF_Tx": false, "UHF_Rx": false }, "geometry": { "type": "Point", "coordinates": [-5.64, -15.95] } },
    { "type": "Feature", "properties": { "station": "Maui, HI", "country": "USA", "company": "Leaf", "status": "Operational", "S_band_Tx": true, "S_band_Rx": true, "X_band_Rx": true, "Ka_band_Rx": false, "UHF_Tx": false, "UHF_Rx": false }, "geometry": { "type": "Point", "coordinates": [-156.33, 20.8] } },
    { "type": "Feature", "properties": { "station": "Arawa", "country": "Papua New Guinea", "company": "Leaf", "status": "Operational", "S_band_Tx": true, "S_band_Rx": true, "X_band_Rx": true, "Ka_band_Rx": true, "UHF_Tx": false, "UHF_Rx": false }, "geometry": { "type": "Point", "coordinates": [155.57, -6.23] } },
    { "type": "Feature", "properties": { "station": "Utqiagvik, AK", "country": "USA", "company": "Leaf", "status": "Operational", "S_band_Tx": true, "S_band_Rx": true, "X_band_Rx": true, "Ka_band_Rx": true, "UHF_Tx": false, "UHF_Rx": false }, "geometry": { "type": "Point", "coordinates": [-156.79, 71.29] } },
    { "type": "Feature", "properties": { "station": "Talkeetna, AK", "country": "USA", "company": "Leaf", "status": "Operational", "S_band_Tx": true, "S_band_Rx": true, "X_band_Rx": true, "Ka_band_Rx": false, "UHF_Tx": false, "UHF_Rx": false }, "geometry": { "type": "Point", "coordinates": [-150.11, 62.32] } },
    { "type": "Feature", "properties": { "station": "Longyearbyen (Svalbard)", "country": "Norway", "company": "KSAT", "status": "Operational", "S_band_Tx": true, "S_band_Rx": true, "X_band_Rx": true, "Ka_band_Rx": true, "UHF_Tx": false, "UHF_Rx": false }, "geometry": { "type": "Point", "coordinates": [15.3894, 78.2306] } },
    { "type": "Feature", "properties": { "station": "Tromsø", "country": "Norway", "company": "KSAT", "status": "Operational", "S_band_Tx": false, "S_band_Rx": true, "X_band_Rx": true, "Ka_band_Rx": false, "UHF_Tx": false, "UHF_Rx": false }, "geometry": { "type": "Point", "coordinates": [18.9423, 69.6621] } },
    { "type": "Feature", "properties": { "station": "Vardø", "country": "Norway", "company": "KSAT", "status": "Operational", "S_band_Tx": false, "S_band_Rx": true, "X_band_Rx": true, "Ka_band_Rx": false, "UHF_Tx": false, "UHF_Rx": false }, "geometry": { "type": "Point", "coordinates": [31.1167, 70.3667] } },
    { "type": "Feature", "properties": { "station": "Troll (Queen Maud Land)", "country": "Antarctica", "company": "KSAT", "status": "Operational", "S_band_Tx": false, "S_band_Rx": true, "X_band_Rx": true, "Ka_band_Rx": false, "UHF_Tx": false, "UHF_Rx": false }, "geometry": { "type": "Point", "coordinates": [2.5333, -72] } },
    { "type": "Feature", "properties": { "station": "Inuvik", "country": "Canada", "company": "KSAT", "status": "Operational", "S_band_Tx": false, "S_band_Rx": true, "X_band_Rx": true, "Ka_band_Rx": false, "UHF_Tx": false, "UHF_Rx": false }, "geometry": { "type": "Point", "coordinates": [-133.72, 68.36] } },
    { "type": "Feature", "properties": { "station": "Nuuk", "country": "Greenland", "company": "KSAT", "status": "Operational", "S_band_Tx": false, "S_band_Rx": true, "X_band_Rx": true, "Ka_band_Rx": false, "UHF_Tx": false, "UHF_Rx": false }, "geometry": { "type": "Point", "coordinates": [-51.7216, 64.1836] } },
    { "type": "Feature", "properties": { "station": "Punta Arenas", "country": "Chile", "company": "KSAT", "status": "Operational", "S_band_Tx": false, "S_band_Rx": true, "X_band_Rx": true, "Ka_band_Rx": true, "UHF_Tx": false, "UHF_Rx": false }, "geometry": { "type": "Point", "coordinates": [-70.9171, -53.1638] } },
    { "type": "Feature", "properties": { "station": "Panama City", "country": "Panama", "company": "KSAT", "status": "Operational", "S_band_Tx": true, "S_band_Rx": true, "X_band_Rx": false, "Ka_band_Rx": false, "UHF_Tx": true, "UHF_Rx": true }, "geometry": { "type": "Point", "coordinates": [-79.5199, 8.9824] } },
    { "type": "Feature", "properties": { "station": "Awarua", "country": "New Zealand", "company": "KSAT", "status": "Operational", "S_band_Tx": false, "S_band_Rx": true, "X_band_Rx": true, "Ka_band_Rx": false, "UHF_Tx": false, "UHF_Rx": false }, "geometry": { "type": "Point", "coordinates": [168.33, -46.58] } },
    { "type": "Feature", "properties": { "station": "Tokyo", "country": "Japan", "company": "KSAT", "status": "Operational", "S_band_Tx": false, "S_band_Rx": true, "X_band_Rx": true, "Ka_band_Rx": false, "UHF_Tx": false, "UHF_Rx": false }, "geometry": { "type": "Point", "coordinates": [139.6917, 35.6895] } },
    { "type": "Feature", "properties": { "station": "Puertollano", "country": "Spain", "company": "KSAT", "status": "Operational", "S_band_Tx": false, "S_band_Rx": true, "X_band_Rx": true, "Ka_band_Rx": false, "UHF_Tx": false, "UHF_Rx": false }, "geometry": { "type": "Point", "coordinates": [-4.11, 38.687] } },
    { "type": "Feature", "properties": { "station": "Athens", "country": "Greece", "company": "KSAT", "status": "Operational", "S_band_Tx": false, "S_band_Rx": true, "X_band_Rx": true, "Ka_band_Rx": false, "UHF_Tx": false, "UHF_Rx": false }, "geometry": { "type": "Point", "coordinates": [23.7275, 37.9838] } },
    { "type": "Feature", "properties": { "station": "Singapore", "country": "Singapore", "company": "KSAT", "status": "Operational", "S_band_Tx": true, "S_band_Rx": true, "X_band_Rx": true, "Ka_band_Rx": false, "UHF_Tx": true, "UHF_Rx": true }, "geometry": { "type": "Point", "coordinates": [103.8198, 1.3521] } },
    { "type": "Feature", "properties": { "station": "Dubai", "country": "United Arab Emirates", "company": "KSAT", "status": "Operational", "S_band_Tx": false, "S_band_Rx": true, "X_band_Rx": true, "Ka_band_Rx": false, "UHF_Tx": false, "UHF_Rx": false }, "geometry": { "type": "Point", "coordinates": [55.2708, 25.2048] } },
    { "type": "Feature", "properties": { "station": "Mauritius", "country": "Mauritius", "company": "KSAT", "status": "Operational", "S_band_Tx": false, "S_band_Rx": true, "X_band_Rx": true, "Ka_band_Rx": false, "UHF_Tx": false, "UHF_Rx": false }, "geometry": { "type": "Point", "coordinates": [57.5522, -20.3484] } },
    { "type": "Feature", "properties": { "station": "Hartebeesthoek", "country": "South Africa", "company": "KSAT", "status": "Operational", "S_band_Tx": false, "S_band_Rx": true, "X_band_Rx": true, "Ka_band_Rx": false, "UHF_Tx": false, "UHF_Rx": false }, "geometry": { "type": "Point", "coordinates": [27.685, -25.8889] } },
    { "type": "Feature", "properties": { "station": "Hawaii", "country": "United States", "company": "KSAT", "status": "Operational", "S_band_Tx": false, "S_band_Rx": true, "X_band_Rx": true, "Ka_band_Rx": false, "UHF_Tx": false, "UHF_Rx": false }, "geometry": { "type": "Point", "coordinates": [-155.5828, 19.8968] } },
    { "type": "Feature", "properties": { "station": "Los Angeles", "country": "United States", "company": "KSAT", "status": "Operational", "S_band_Tx": false, "S_band_Rx": true, "X_band_Rx": true, "Ka_band_Rx": false, "UHF_Tx": false, "UHF_Rx": false }, "geometry": { "type": "Point", "coordinates": [-118.2437, 34.0522] } },
    { "type": "Feature", "properties": { "station": "Fairbanks", "country": "United States", "company": "KSAT", "status": "Operational", "S_band_Tx": false, "S_band_Rx": true, "X_band_Rx": true, "Ka_band_Rx": false, "UHF_Tx": false, "UHF_Rx": false }, "geometry": { "type": "Point", "coordinates": [-147.7164, 64.8378] } },
    { "type": "Feature", "properties": { "station": "Córdoba", "country": "Argentina", "company": "KSAT Partner", "status": "Operational", "S_band_Tx": false, "S_band_Rx": true, "X_band_Rx": true, "Ka_band_Rx": false, "UHF_Tx": false, "UHF_Rx": false }, "geometry": { "type": "Point", "coordinates": [-64.1833, -31.4167] } },
    { "type": "Feature", "properties": { "station": "Tolhuin", "country": "Argentina", "company": "KSAT Partner", "status": "Operational", "S_band_Tx": false, "S_band_Rx": true, "X_band_Rx": true, "Ka_band_Rx": false, "UHF_Tx": false, "UHF_Rx": false }, "geometry": { "type": "Point", "coordinates": [-67.1667, -54.4833] } },
    { "type": "Feature", "properties": { "station": "Azores", "country": "Portugal", "company": "KSAT Partner", "status": "Operational", "S_band_Tx": false, "S_band_Rx": true, "X_band_Rx": true, "Ka_band_Rx": false, "UHF_Tx": false, "UHF_Rx": false }, "geometry": { "type": "Point", "coordinates": [-25.6756, 37.7412] } },
    { "type": "Feature", "properties": { "station": "Bangalore", "country": "India", "company": "KSAT Partner", "status": "Operational", "S_band_Tx": false, "S_band_Rx": true, "X_band_Rx": true, "Ka_band_Rx": false, "UHF_Tx": false, "UHF_Rx": false }, "geometry": { "type": "Point", "coordinates": [77.5946, 12.9716] } }
  ]
}
